[{"oldAddress":"109 West 129th St.","newAddress":"109 W 129TH ST New York NY ","lat":"40.8106798","long":"-73.944244","title":"SRO Building","wheelc":true,"meetings":[["Wednesdays","6:00 PM","7:00 PM","BB"],["Mondays","7:00 PM","8:00 PM","B"]],"details":""},{"oldAddress":"240 West 145th St.","newAddress":"240 W 145TH ST New York NY ","lat":"40.8222189","long":"-73.9408621","title":"Union Baptist Church","wheelc":true,"meetings":[["Wednesdays","10:00 AM","11:00 AM","B"],["Thursdays","10:00 AM","11:00 AM","BB"],["Fridays","10:00 AM","11:00 AM","S"],["Tuesdays","10:00 AM","11:00 AM","OD"]],"details":"Thu=Altern.BB, Living Sober & Other A.A. Literature. Fri.=Alternates between Step & Tradition."},{"oldAddress":"469 West 142nd St.","newAddress":"469 W 142ND ST New York NY ","lat":"40.8232166","long":"-73.9484769","title":"Our Lady of Lourdes Church","wheelc":false,"meetings":[["Saturdays","7:30 AM","8:30 AM","OD"]],"details":"Topic 1st Saturday."},{"oldAddress":"204 West 134th St.","newAddress":"204 W 134TH ST New York NY ","lat":"40.8147959","long":"-73.9448542","title":"St. Phillip Church","wheelc":false,"meetings":[["Saturdays","11:30 AM","1:00 PM","OD"]],"details":"B-3rd Saturday"},{"oldAddress":"2044 Adam Clayton Powell Blvd.","newAddress":"2044 ADAM CLAYTON POWELL BLVD New York NY ","lat":"40.8072583","long":"-73.9499047","title":"Spiritual Renewal Church","wheelc":false,"meetings":[["Mondays","12:15 PM","1:15 PM","B"],["Wednesdays","12:15 PM","1:15 PM","S"],["Fridays","12:15 PM","1:15 PM","OD"]],"details":"T If there is a fifth Wednesday."},{"oldAddress":"469 West 142nd St.","newAddress":"469 W 142ND ST New York NY ","lat":"40.8232166","long":"-73.9484769","title":"","wheelc":false,"meetings":[["Thursdays","8:00 PM","9:00 PM","B"]],"details":"Spanish speaking meeting."},{"oldAddress":"521 W 126th St","newAddress":"521 W 126TH ST New York NY ","lat":"40.8148408","long":"-73.9561515","title":"St. Mary's Episcopal","wheelc":true,"meetings":[["Mondays","12:00 PM","1:00 PM","O"]],"details":"Contact in Advance for Wheelcahir Accessibility"},{"oldAddress":"109 West 129th St.","newAddress":"109 W 129TH ST New York NY ","lat":"40.8106798","long":"-73.944244","title":"SRO Building Community Room","wheelc":true,"meetings":[["Sundays","5:30 PM","6:30 PM","S"],["Sundays","7:00 PM","8:00 PM","B"]],"details":"All meetings are non-smoking."},{"oldAddress":"469 West 142nd St.","newAddress":"469 W 142ND ST New York NY ","lat":"40.8232166","long":"-73.9484769","title":"Our Lady of Lourdes","wheelc":false,"meetings":[["Thursdays","6:00 PM","7:00 PM","BB"]],"details":""},{"oldAddress":"2044 Seventh Ave.","newAddress":"2044 SEVENTH AVE New York NY ","lat":"40.8071759186691","long":"-73.9497519327616","title":"","wheelc":true,"meetings":[["Sundays","6:00 PM","7:30 PM","BB"]],"details":"S 2nd, BB 3rd, OD 4th, Living Sober 5th wk."},{"oldAddress":"127 West 127th St.","newAddress":"127 W 127TH ST New York NY ","lat":"40.8095378","long":"-73.9453852","title":"S.A.G.E.","wheelc":true,"meetings":[["Mondays","4:30 PM","5:30 PM","C"]],"details":"Meeting is closed on holidays"},{"oldAddress":"310 West 139th St.","newAddress":"310 W 139TH ST New York NY ","lat":"40.8192096","long":"-73.9453784","title":"Grace Congregational Baptist Church","wheelc":false,"meetings":[["Fridays","7:00 PM","8:00 PM","Op"],["Mondays","7:00 PM","8:00 PM","S"],["Fridays","8:00 PM","9:00 PM","B"],["Fridays",null,null,"O"]],"details":"T 1st Monday at 7PM Open 1st Friday 8:10pm, Pitch other Fridays 8:10pm"},{"oldAddress":"409 West 141st St.","newAddress":"409 W 141ST ST New York NY ","lat":"40.8215113","long":"-73.9463991","title":"St. James Church","wheelc":false,"meetings":[["Mondays","7:00 PM","8:00 PM","B"]],"details":""},{"oldAddress":"91 Claremont Ave.","newAddress":"91 CLAREMONT AVE New York NY ","lat":"40.8119559","long":"-73.9625116","title":"Riverside Church","wheelc":true,"meetings":[["Sundays","3:00 PM","4:00 PM","OD"]],"details":""},{"oldAddress":"1727 Amsterdam Ave.","newAddress":"1727 AMSTERDAM AVE New York NY ","lat":"40.8255289","long":"-73.9471616","title":"Upper Manhattan Mental Health Center","wheelc":true,"meetings":[["Sundays","9:30 AM","10:30 AM","B"],["Sundays","11:00 AM","12:00 PM","C"]],"details":"1st Sun-OD; 2nd Sun-S; 3rd Sun-Topic; 4th Sun-T; 5th Sun-OD"},{"oldAddress":"469 West 142nd St.","newAddress":"469 W 142ND ST New York NY ","lat":"40.8232166","long":"-73.9484769","title":"Our Lady of Lourdes Church","wheelc":false,"meetings":[["Saturdays","5:00 PM","6:00 PM","OD"]],"details":"S 4th Saturday Men's Meeting"},{"oldAddress":"91 Claremont Ave.","newAddress":"91 CLAREMONT AVE New York NY ","lat":"40.8119559","long":"-73.9625116","title":"Riverside Church","wheelc":true,"meetings":[["Mondays","7:00 PM","8:00 PM","C"]],"details":"Non-Smoking Meeting."},{"oldAddress":"219 West 132nd St.","newAddress":"219 W 132ND ST New York NY ","lat":"40.8138548","long":"-73.9459315","title":"St. Aloysius School","wheelc":false,"meetings":[["Saturdays","3:00 PM","4:00 PM","T"],["Saturdays","6:00 PM","7:00 PM","B"],["Tuesdays","8:00 PM","9:00 PM","O"]],"details":"S 2nd & T 4th Tue All meetings are non-smoking. No children allowed at meetings."},{"oldAddress":"211 West 129th St.","newAddress":"211 W 129TH ST New York NY ","lat":"40.8119105","long":"-73.9471217","title":"Salem United Methodist Church Community Center","wheelc":true,"meetings":[["Wednesdays","7:30 PM","8:30 PM","C"]],"details":"O 2nd Wednesday"},{"oldAddress":"425 West 144th St.","newAddress":"425 W 144TH ST New York NY ","lat":"40.8238524","long":"-73.9461167","title":"Convent Baptist Church Education Building","wheelc":true,"meetings":[["Wednesdays","7:00 PM","8:00 PM","C"]],"details":"Men's Meeting"},{"oldAddress":"204 West 134th St.","newAddress":"204 W 134TH ST New York NY ","lat":"40.8147959","long":"-73.9448542","title":"St. Phillip's Church","wheelc":true,"meetings":[["Sundays","4:00 PM","5:00 PM","C"],["Thursdays","7:00 PM","8:00 PM","BB"]],"details":"S 2nd, C 3rd, BB 4th, & Grapevine 5th Thu."},{"oldAddress":"506 Lenox Ave.","newAddress":"506 LENOX AVE New York NY ","lat":"40.8143457","long":"-73.9403066","title":"Harlem Hospital King Pavilion","wheelc":true,"meetings":[["Sundays","2:00 PM","3:00 PM","OD"]],"details":"B 1st, OD 2nd, S3 3rd, C Literature 4th, & S11 5th Sun."},{"oldAddress":"1727 Amsterdam Ave.","newAddress":"1727 AMSTERDAM AVE New York NY ","lat":"40.8255289","long":"-73.9471616","title":"Council Center for Problems of Living","wheelc":true,"meetings":[["Fridays","5:30 PM","6:30 PM","B"]],"details":""},{"oldAddress":"1854 Amsterdam Ave.","newAddress":"1854 AMSTERDAM AVE New York NY ","lat":"40.8295902","long":"-73.9446541","title":"","wheelc":false,"meetings":[["Tuesdays","6:00 PM","7:00 PM","BB"]],"details":""},{"oldAddress":"469 West 142nd St.","newAddress":"469 W 142ND ST New York NY","lat":"40.8232166","long":"-73.9484769","title":"Our Lady of Lourdes Church","wheelc":false,"meetings":[["Saturdays","9:30 AM","11:00 AM","BB"]],"details":"Meeting meets each Saturday from mid-August thru mid-December"},{"oldAddress":"58-66 West 135th St.","newAddress":"58 West 135th Street","lat":"40.8136031","long":"-73.9403873","title":"Metropolitan AME Church","wheelc":true,"meetings":[["Tuesdays","6:30 PM","7:30 PM","S"]],"details":"Non-Smoking Meeting."}]