[{"streetAddress":"7 E 10TH ST New York NY ","lat":"40.6482599","long":"-73.9704806"},{"streetAddress":"155 E 22ND ST New York NY ","lat":"40.7384244","long":"-73.9840055"},{"streetAddress":"61 FOURTH AVE New York NY ","lat":"40.6822459","long":"-73.9795061"},{"streetAddress":"208 W 13TH ST New York NY ","lat":"40.7381228","long":"-74.0010304"},{"streetAddress":"123 E 15TH ST New York NY ","lat":"40.7346341","long":"-73.9879773"},{"streetAddress":"61 GRAMERCY PARK N New York NY ","lat":"40.7387068","long":"-73.986572"},{"streetAddress":"155 E 22ND ST New York NY ","lat":"40.7384244","long":"-73.9840055"},{"streetAddress":"127 E 22ND ST New York NY ","lat":"40.7390247","long":"-73.9854161"},{"streetAddress":"602 E 9TH ST New York NY ","lat":"40.7260409","long":"-73.9800393"},{"streetAddress":"125 W 14TH ST New York NY ","lat":"40.7379244","long":"-73.9976813"},{"streetAddress":"346 W New York NY ","lat":"40.6639307188879","long":"-73.9382749875207"},{"streetAddress":"414 E 14TH ST New York NY ","lat":"40.7309298","long":"-73.9819876"},{"streetAddress":"119 NINTH AVE New York NY ","lat":"40.7432442","long":"-74.0039393"},{"streetAddress":"125 W 14TH ST New York NY ","lat":"40.7379244","long":"-73.9976813"},{"streetAddress":"202 W 24 ST New York NY ","lat":"40.7449478","long":"-73.995862"},{"streetAddress":"28 GRAMERCY PARK S New York NY ","lat":"40.7371499","long":"-73.9853123"},{"streetAddress":"50 E 7TH ST New York NY ","lat":"40.6519369","long":"-73.9750389"},{"streetAddress":"273 BOWERY New York NY ","lat":"40.7236736","long":"-73.9924832"},{"streetAddress":"802 BROADWAY New York NY ","lat":"40.7320395","long":"-73.991189"},{"streetAddress":"28 GRAMMERCY PARK S New York NY ","lat":"40.7371499","long":"-73.9853123"},{"streetAddress":"209 E 16TH ST New York NY ","lat":"40.7345135","long":"-73.9854432"},{"streetAddress":"44 2ND AVE New York NY ","lat":"40.7251086","long":"-73.9899858"},{"streetAddress":"229 W 14TH ST New York NY ","lat":"40.7392489","long":"-74.0008788"},{"streetAddress":"229 W 14TH ST New York NY ","lat":"40.7392489","long":"-74.0008788"},{"streetAddress":"208 W 13TH ST New York NY ","lat":"40.7381228","long":"-74.0010304"},{"streetAddress":"28 GRAMERCY PARK S New York NY ","lat":"40.7371499","long":"-73.9853123"},{"streetAddress":"208 W 13TH ST New York NY ","lat":"40.7381228","long":"-74.0010304"},{"streetAddress":"307 W New York NY ","lat":"40.6639307188879","long":"-73.9382749875207"},{"streetAddress":"343 W 25TH ST New York NY ","lat":"40.747411","long":"-73.9992698"},{"streetAddress":"80 ST New York NY ","lat":"40.7060856332181","long":"-74.0162322706993"},{"streetAddress":"208 W 13TH ST New York NY ","lat":"40.7381228","long":"-74.0010304"},{"streetAddress":"51 E 25TH ST New York NY ","lat":"40.7419488","long":"-73.9861549"},{"streetAddress":"155 E 22ND ST New York NY ","lat":"40.7384244","long":"-73.9840055"},{"streetAddress":"7 E 10TH ST New York NY ","lat":"40.7332068","long":"-73.9946888"},{"streetAddress":"315 W 22ND ST New York NY ","lat":"40.7450587","long":"-73.9997029"},{"streetAddress":"15 RUTHERFORD PL New York NY ","lat":"40.7337834","long":"-73.985098"},{"streetAddress":"25 E 15TH CONFERENCE New York NY ","lat":"40.7361047","long":"-73.9914936"},{"streetAddress":"175 9TH AVE New York NY ","lat":"40.6717826","long":"-73.9914048"},{"streetAddress":"19 UNION SQ W New York NY ","lat":"40.7360864","long":"-73.9912277"},{"streetAddress":"155 E 22ND ST New York NY ","lat":"40.7384244","long":"-73.9840055"},{"streetAddress":"423 E 23RD ST New York NY ","lat":"40.7368113","long":"-73.9772015"},{"streetAddress":"209 E 16TH ST New York NY ","lat":"40.6452634","long":"-73.9641398"},{"streetAddress":"411 E 12TH ST New York NY ","lat":"40.729824","long":"-73.982816"},{"streetAddress":"209 E 16TH ST New York NY ","lat":"40.6452634","long":"-73.9641398"},{"streetAddress":"239 E 21ST ST New York NY ","lat":"40.7369141","long":"-73.9823276"},{"streetAddress":"12 W 12TH ST New York NY ","lat":"40.7348062","long":"-73.9951634"},{"streetAddress":"44 2ND AVE New York NY ","lat":"40.7251086","long":"-73.9899858"},{"streetAddress":"208 W 13TH ST New York NY ","lat":"40.7381228","long":"-74.0010304"},{"streetAddress":"12 W 11TH ST New York NY ","lat":"40.7341868","long":"-73.9957178"},{"streetAddress":"116 W 11TH ST New York NY ","lat":"40.7355598","long":"-73.9990141"},{"streetAddress":"80 5TH AVE New York NY ","lat":"40.7358709","long":"-73.9939317"},{"streetAddress":"116 W New York NY ","lat":"40.6639307188879","long":"-73.9382749875207"},{"streetAddress":"155 E 22ND ST New York NY ","lat":"40.7384244","long":"-73.9840055"},{"streetAddress":"319 EASTR 24TH ST New York NY ","lat":"40.6639307188879","long":"-73.9382749875207"},{"streetAddress":"10 E UNION SQ New York NY ","lat":"40.7348335","long":"-73.9897815"},{"streetAddress":"123 E 15TH ST New York NY ","lat":"40.7346341","long":"-73.9879773"},{"streetAddress":"206208 E 11TH ST New York NY ","lat":"40.6639307188879","long":"-73.9382749875207"},{"streetAddress":"411 E 12TH ST New York NY ","lat":"40.729824","long":"-73.982816"},{"streetAddress":"125 W 14TH ST New York NY ","lat":"40.7379244","long":"-73.9976813"},{"streetAddress":"208 W 13TH ST New York NY ","lat":"40.7381228","long":"-74.0010304"},{"streetAddress":"10 UNION SQ E New York NY ","lat":"40.7348335","long":"-73.9897815"},{"streetAddress":"155 W 22ND ST New York NY ","lat":"40.7431787","long":"-73.9952777"},{"streetAddress":"208 W 13TH ST New York NY ","lat":"40.7381228","long":"-74.0010304"},{"streetAddress":"12 W 12TH ST New York NY ","lat":"40.7348062","long":"-73.9951634"},{"streetAddress":"20 WASHINGTON SQ N New York NY ","lat":"40.7319436","long":"-73.9977667"},{"streetAddress":"344 E 14TH ST New York NY ","lat":"40.7314102","long":"-73.9832013"},{"streetAddress":"155 W 22ND ST New York NY ","lat":"40.7431787","long":"-73.9952777"},{"streetAddress":"208 W 13TH ST New York NY ","lat":"40.7381228","long":"-74.0010304"},{"streetAddress":"602 E 9TH ST New York NY ","lat":"40.7260409","long":"-73.9800393"},{"streetAddress":"208 W 13TH ST New York NY ","lat":"40.7381228","long":"-74.0010304"},{"streetAddress":"208 W 13TH ST New York NY ","lat":"40.7381228","long":"-74.0010304"},{"streetAddress":"19 UNION SQ W New York NY ","lat":"40.7360864","long":"-73.9912277"},{"streetAddress":"173 E 3RD ST New York NY ","lat":"40.7233431","long":"-73.9843062"},{"streetAddress":"50 E 7TH ST New York NY ","lat":"40.6519369","long":"-73.9750389"}]