[{"oldAddress":"701 West 168th St.","newAddress":"701 W 168TH STREET FORT WASHINGTON AVE New York NY ","lat":"40.8424566","long":"-73.9424508","title":"Columbia Presbyterian Hospital","wheelc":true,"meetings":[["Thursdays","12:00 PM","1:00 PM","T"],["Fridays","12:00 PM","1:00 PM","S"],["Mondays","12:00 PM","1:00 PM","C"],["Tuesdays","12:00 PM","1:00 PM","Sp"],["Wednesdays","12:00 PM","1:00 PM","BB"]],"details":"Check with Security for Room # T Last Thu, Living Sober & Anniv Last Fri. No meetings on public holidays"},{"oldAddress":"715 West 179th St.","newAddress":"715 W 179TH ST New York NY ","lat":"40.8492702","long":"-73.9382266","title":"Holy Rood Church","wheelc":false,"meetings":[["Mondays","10:00 AM","11:00 AM","T"],["Tuesdays","10:00 AM","11:00 AM","OD"],["Wednesdays","10:00 AM","11:00 AM","Op"],["Thursdays","10:00 AM","11:00 AM","B"],["Fridays","10:00 AM","11:00 AM","Sp"]],"details":"Living Sober Last Tuesday, T Last Wednesday"},{"oldAddress":"715 West 179th St.","newAddress":"715 W 179TH ST New York NY ","lat":"40.8492702","long":"-73.9382266","title":"Holy Rood Church","wheelc":true,"meetings":[["Sundays","10:00 AM","11:00 AM","S"]],"details":"10th Step"},{"oldAddress":"431 West 204th St.","newAddress":"431 W 204TH ST New York NY ","lat":"40.8620966104922","long":"-73.9190004613749","title":"St. Jude's School","wheelc":false,"meetings":[["Sundays","12:00 PM","1:00 PM","T"],["Wednesdays","7:00 PM","8:00 PM","O"]],"details":"BB 1st & T Last Wed."},{"oldAddress":"550 West 155th St.","newAddress":"550 W 155TH ST New York NY ","lat":"40.8321452","long":"-73.9448547","title":"Church of the Intercession","wheelc":false,"meetings":[["Saturdays","12:30 PM","2:00 PM","C"]],"details":"Men's meeting & Gay men's focus. All are welcome. Anniversary last Sat., 1st Sat.=S followed by Bus. Mtg."},{"oldAddress":"557 West 156th St.","newAddress":"557 W 156TH ST New York NY ","lat":"40.8333254","long":"-73.9446563","title":"Casita Esperanza","wheelc":true,"meetings":[["Wednesdays","8:00 PM","10:00 PM","Sp"],["Fridays","8:00 PM","10:00 PM","C"]],"details":"Spanish Speaking Meetings."},{"oldAddress":"35 Thayer St.","newAddress":"35 THAYER ST New York NY ","lat":"40.8626147","long":"-73.9263819","title":"","wheelc":true,"meetings":[["Sundays","5:00 PM","7:00 PM","O"],["Tuesdays","8:00 PM","10:00 PM","Op"],["Thursdays","8:00 PM","10:00 PM","O"],["Saturdays","8:00 PM","10:00 PM","Op"]],"details":"Spanish speaking meetings."},{"oldAddress":"715 West 179th St.","newAddress":"715 W 179TH ST New York NY ","lat":"40.8492702","long":"-73.9382266","title":"Episcopal Holy Rood Church","wheelc":true,"meetings":[["Tuesdays","7:30 PM","8:30 PM","BB"],["Thursdays","7:30 PM","8:30 PM","BB"],["Thursdays","9:30 PM","10:30 AM","C"],["Tuesdays","9:30 PM","10:30 PM","C"]],"details":"Spanish speaking meetings."},{"oldAddress":"502 West165th St.","newAddress":"502 WEST165TH ST New York NY ","lat":"40.6639307188879","long":"-73.9382749875207","title":"Church Santa Rosa de Lima","wheelc":false,"meetings":[["Sundays","2:30 PM","3:30 PM","O"],["Tuesdays","8:00 PM","9:00 PM","Op"],["Thursdays","8:00 PM","9:00 PM","C"]],"details":"Spanish speaking meetings."},{"oldAddress":"91 Arden St.","newAddress":"91 ARDEN ST New York NY ","lat":"40.8639073","long":"-73.9282532","title":"Our Lady Queen of Martyrs","wheelc":false,"meetings":[["Mondays","8:00 PM","9:00 PM","Sp"],["Fridays","8:00 PM","9:00 PM","C"]],"details":"Spanish Speaking Meetings."},{"oldAddress":"20 Cumming St.","newAddress":"20 CUMMING ST New York NY ","lat":"40.8664723","long":"-73.9264521","title":"Holy Trinity Episcopal Church","wheelc":false,"meetings":[["Sundays","7:30 PM","8:30 PM","C"],["Wednesdays","7:30 PM","8:30 PM","Sp"]],"details":"LGBT All welcome. Sun= As Bill See it; Wed=Steps1-3 Sun.meeting in Sanctuary; Wed meeting in Auditorium"},{"oldAddress":"84 Vermilyea Ave.","newAddress":"84 VERMILYEA AVE New York NY ","lat":"40.86596","long":"-73.9231447","title":"Mount Washington Presbyterian Church","wheelc":false,"meetings":[["Saturdays","11:00 AM","12:00 PM","B"],["Saturdays","11:00 AM","12:00 PM","C"],["Tuesdays","12:30 PM","1:30 PM","C"]],"details":"Sat. Closed meeting rotating step/speaker/trad/anniversary In Dec. first two weeks will be Step meeting"},{"oldAddress":"620 Isham St.","newAddress":"620 ISHAM ST New York NY ","lat":"40.8692449","long":"-73.9206611","title":"Church of the Good Shepherd","wheelc":false,"meetings":[["Mondays","8:00 PM","9:00 PM","C"]],"details":"Open Anniv. Last Mon."},{"oldAddress":"2005 Amsterdam Ave.","newAddress":"2005 AMSTERDAM AVE New York NY ","lat":"40.8342553","long":"-73.9407968","title":"COATHA Church on the Hill Senior Center","wheelc":true,"meetings":[["Fridays","7:30 PM","8:30 PM","OD"],["Fridays",null,null,"Op"]],"details":"Open Discussion 1st, 2nd, 4th,and 5th when applicable. OPEN meeting is 3rd Fridays"},{"oldAddress":"178 Bennett Ave.","newAddress":"178 BENNETT AVE New York NY ","lat":"40.8560069","long":"-73.9342762","title":"Our Saviour's Atonement Lutheran Church","wheelc":false,"meetings":[["Mondays","8:00 PM","9:00 PM","C"]],"details":"Men's Meeting"},{"oldAddress":"178 Bennett Ave.","newAddress":"178 BENNETT AVE New York NY ","lat":"40.8560069","long":"-73.9342762","title":"Our Saviour's Atonement Church","wheelc":false,"meetings":[["Fridays","7:00 PM","8:00 PM","BB"]],"details":"1st- Step, 2nd-OD, 3rd-Beg., 4th- BB, 5th- OD"},{"oldAddress":"91 Arden St.","newAddress":"91 ARDEN ST New York NY ","lat":"40.8639073","long":"-73.9282532","title":"Our Lady Queen of Martyrs","wheelc":false,"meetings":[["Thursdays","7:30 PM","8:30 PM","OD"]],"details":""},{"oldAddress":"20 Cummings St.","newAddress":"20 CUMMINGS ST New York NY ","lat":"40.8664723","long":"-73.9264521","title":"Holy Trinity Church","wheelc":false,"meetings":[["Saturdays","7:00 PM","8:00 PM","C"]],"details":""},{"oldAddress":"715 West 179th St.","newAddress":"715 W 179TH ST New York NY ","lat":"40.8492702","long":"-73.9382266","title":"Holy Rood Church","wheelc":true,"meetings":[["Tuesdays","7:30 PM","8:30 PM","O"]],"details":""},{"oldAddress":"189th St.","newAddress":"189TH ST New York NY ","lat":"40.6639307188879","long":"-73.9382749875207","title":"Cornerstone Center","wheelc":false,"meetings":[["Thursdays","7:30 PM","8:30 PM","C"]],"details":""},{"oldAddress":"178 Bennett Ave.","newAddress":"178 BENNETT AVE New York NY ","lat":"40.8560069","long":"-73.9342762","title":"The Corner Stone Center","wheelc":false,"meetings":[["Sundays","6:00 PM","7:00 PM","C"]],"details":""},{"oldAddress":"178 Bennett Ave.","newAddress":"178 BENNETT AVE New York NY ","lat":"40.8560069","long":"-73.9342762","title":"Cornerstone Center","wheelc":false,"meetings":[["Mondays","7:30 PM","8:30 PM","BB"]],"details":""}]