[{"oldAddress":"273 Bowery","newAddress":"273 BOWERY New York NY ","lat":"40.7236736","long":"-73.9924832","title":"University Settlement","wheelc":true,"meetings":[["Fridays","6:00 PM","7:00 PM","C"]],"details":""},{"oldAddress":"232 West 11th St.","newAddress":"232 W 11TH ST New York NY ","lat":"40.736193","long":"-74.0028632","title":"Manhattan Seventh-Day Adventist Church","wheelc":false,"meetings":[["Thursdays","6:15 PM","7:15 PM","S"]],"details":""},{"oldAddress":"283 West Broadway","newAddress":"283 W BROADWAY New York NY ","lat":"40.7208165","long":"-74.0048523","title":"Hazelden Center","wheelc":true,"meetings":[["Saturdays","12:00 PM","1:00 PM","C"]],"details":"Sex inventory 4th step literature meeting Meets 1st and 3rd Saturday of the month from noon-1"},{"oldAddress":"232 W. 11th St.","newAddress":"232 W New York NY ","lat":"40.6639307188879","long":"-73.9382749875207","title":"Seventh Day Adventist Church","wheelc":false,"meetings":[["Sundays","6:30 PM","7:45 PM","B"]],"details":""},{"oldAddress":"220 West Houston St.","newAddress":"220 W HOUSTON ST New York NY ","lat":"40.7286385","long":"-74.0045871","title":"","wheelc":false,"meetings":[["Sundays","10:30 AM","12:00 PM","OD"]],"details":"NOTE: Meeting only meets on the 1st & 3rd Sunday of each month *Big Book Workshop, Meeting ends at Noon."},{"oldAddress":"253 Center St.","newAddress":"253 CENTER ST New York NY ","lat":"40.7206323","long":"-73.9979756","title":"Golden Bridge Yoga Center","wheelc":false,"meetings":[["Mondays","5:15 PM","6:15 PM","OD"]],"details":"No shoes worn in meeting location. A short meditation opens the meeting."},{"oldAddress":"273 Bowery","newAddress":"273 BOWERY New York NY ","lat":"40.7236736","long":"-73.9924832","title":"University Settlement (The Chinatown YMCA)","wheelc":true,"meetings":[["Fridays","6:45 PM","8:00 PM","OD"]],"details":"Ask front desk for meeting location"},{"oldAddress":"487 Hudson St.","newAddress":"487 HUDSON ST New York NY ","lat":"40.7325884","long":"-74.0066592","title":"St. Luke's Episcopal School","wheelc":false,"meetings":[["Mondays","7:15 PM","8:15 PM","B"],["Tuesdays","7:15 PM","8:15 PM","BB"],["Wednesdays","7:15 PM","8:15 PM","OD"],["Fridays","8:00 PM","9:00 PM","Op"],["Mondays","8:30 PM","9:30 PM","S"]],"details":"Mon.Step=Rotates Steps 1,2&3, Fri.= T. Last Friday. Parents with children are welcome."},{"oldAddress":"292 Henry St.","newAddress":"292 HENRY ST New York NY ","lat":"40.7137143","long":"-73.983033","title":"St. Augustine's Church","wheelc":true,"meetings":[["Sundays","3:00 PM","4:00 PM","O"],["Tuesdays","7:30 PM","8:30 PM","Op"],["Fridays","8:00 PM","9:00 PM","C"]],"details":"Spanish speaking meetings."},{"oldAddress":"232 West 11th St.","newAddress":"232 W 11TH ST New York NY ","lat":"40.736193","long":"-74.0028632","title":"Manhattan Church of The Seventh-day Adventist","wheelc":true,"meetings":[["Mondays","12:00 AM","12:00 AM","C"]],"details":"Topic Meeting for gay men approaching and over 40. All are welcome."},{"oldAddress":"141 Henry St.","newAddress":"141 HENRY ST New York NY ","lat":"40.6964191","long":"-73.9933777","title":"Church of Saint Theresa Rectory","wheelc":false,"meetings":[["Tuesdays","7:00 PM","8:00 PM","C"]],"details":""},{"oldAddress":"220 West Houston St.","newAddress":"220 W HOUSTON ST New York NY ","lat":"40.7286385","long":"-74.0045871","title":"","wheelc":false,"meetings":[["Mondays","12:00 AM","1:15 AM","S"],["Sundays","12:00 AM","1:15 AM","S"],["Wednesdays","12:00 AM","1:15 AM","B"],["Saturdays","12:00 AM","1:15 AM","C"],["Tuesdays","12:00 AM","1:15 AM","C"],["Fridays","12:00 AM","1:15 AM","C"],["Thursdays","12:00 AM","1:15 AM","Sp"],["Saturdays","2:00 AM","3:15 AM","C"],["Tuesdays","2:00 AM","3:15 AM","OD"],["Fridays","2:00 AM","3:15 AM","Op"],["Mondays","2:00 AM","3:15 AM","OD"],["Thursdays","2:00 AM","3:15 AM","Op"],["Sundays","2:00 AM","3:15 AM","OD"],["Wednesdays","2:00 AM","3:15 AM","Op"],["Saturdays","12:30 PM","1:30 PM","OD"],["Tuesdays","12:30 PM","1:30 PM","Op"],["Mondays","12:30 PM","1:30 PM","OD"],["Thursdays","12:30 PM","1:30 PM","Op"],["Wednesdays","12:30 PM","1:30 PM","OD"],["Fridays","12:30 PM","1:30 PM","Op"],["Sundays","12:30 PM","1:30 PM","OD"],["Tuesdays","5:15 PM","6:15 PM","Op"],["Fridays","5:15 PM","6:15 PM","C"],["Thursdays","5:15 PM","6:15 PM","C"],["Sundays","5:15 PM","6:15 PM","C"],["Wednesdays","5:15 PM","6:15 PM","S"],["Mondays","5:15 PM","6:15 PM","C"],["Wednesdays","6:30 PM","7:30 PM","C"],["Saturdays","6:30 PM","7:30 PM","Sp"],["Tuesdays","6:30 PM","7:30 PM","C"],["Fridays","6:30 PM","7:30 PM","Sp"],["Mondays","6:30 PM","7:30 PM","C"],["Thursdays","6:30 PM","7:30 PM","C"],["Sundays","6:30 PM","7:30 PM","C"],["Sundays","8:00 PM","9:15 PM","S"],["Wednesdays","8:00 PM","9:15 PM","C"],["Saturdays","8:00 PM","9:15 PM","C"],["Tuesdays","8:00 PM","9:15 PM","Sp"],["Mondays","8:00 PM","9:15 PM","C"],["Fridays","8:00 PM","9:15 PM","C"],["Thursdays","8:00 PM","9:15 PM","C"],["Sundays","10:00 PM","11:15 PM","C"],["Wednesdays","10:00 PM","11:15 PM","B"],["Saturdays","10:00 PM","11:15 PM","C"],["Tuesdays","10:00 PM","11:15 PM","C"],["Mondays","10:00 PM","11:15 PM","BB"],["Fridays","10:00 PM","11:15 PM","C"],["Thursdays","10:00 PM","11:15 PM","Sp"]],"details":"Sun.12:30=Meditation, 2am Meetings=Pitch meeting with candlelight. Mon.8pm=Topic, Tues.10pm=T last Tues., Thu.10pm=Problems in Sobriety Sun.8pm=Bus.Meeting last Sun.,Sat.10pm=Anniv.Last"},{"oldAddress":"83 Christopher St.","newAddress":"83 CHRISTOPHER ST New York NY ","lat":"40.7335702","long":"-74.0037456","title":"St. John's Lutheran Church","wheelc":false,"meetings":[["Sundays","12:30 PM","1:30 PM","O"],["Wednesdays","6:30 PM","7:30 PM","Op"],["Fridays","7:30 PM","8:30 PM","Sp"]],"details":"Gay & Lesbian focus. All are welcome."},{"oldAddress":"50 Perry St.","newAddress":"50 PERRY ST New York NY ","lat":"40.7354854","long":"-74.0031569","title":"","wheelc":false,"meetings":[["Wednesdays","7:30 AM","8:30 AM","BB"],["Tuesdays","7:30 AM","8:30 AM","C"],["Mondays","7:30 AM","8:30 AM","C"],["Sundays","7:30 AM","8:30 AM","C"],["Saturdays","7:30 AM","8:30 AM","OD"],["Fridays","7:30 AM","8:30 AM","Op"],["Thursdays","7:30 AM","8:30 AM","C"],["Thursdays","9:00 AM","10:00 AM","C"],["Wednesdays","9:00 AM","10:00 AM","S"],["Tuesdays","9:00 AM","10:00 AM","C"],["Mondays","9:00 AM","10:00 AM","C"],["Sundays","9:00 AM","10:00 AM","C"],["Fridays","9:00 AM","10:00 AM","OD"],["Saturdays","9:30 AM","10:00 AM","Op"],["Fridays","10:30 AM","11:30 AM","C"],["Sundays","11:00 AM","12:00 PM","C"],["Saturdays","12:00 PM","1:00 PM","C"],["Fridays","12:15 PM","1:15 PM","C"],["Thursdays","12:15 PM","1:15 PM","Sp"],["Wednesdays","12:15 PM","1:15 PM","C"],["Tuesdays","12:15 PM","1:15 PM","C"],["Mondays","12:15 PM","1:15 PM","C"],["Sundays","1:00 PM","2:00 PM","C"],["Saturdays","2:30 PM","3:30 PM","C"],["Fridays","2:30 PM","3:30 PM","S"],["Thursdays","2:30 PM","3:30 PM","B"],["Tuesdays","2:30 PM","3:30 PM","C"],["Mondays","2:30 PM","3:30 PM","Sp"],["Wednesdays","2:30 PM","3:30 PM","C"],["Sundays","3:00 PM","4:30 PM","OD"],["Mondays","4:00 PM","5:00 PM","Op"],["Saturdays","4:00 PM","5:00 PM","C"],["Thursdays","4:00 PM","5:00 PM","C"],["Wednesdays","4:00 PM","5:00 PM","C"],["Tuesdays","4:00 PM","5:00 PM","B"],["Fridays","4:00 PM","6:00 PM","C"],["Thursdays","5:30 PM","6:30 PM","C"],["Mondays","6:00 PM","7:00 PM","C"],["Saturdays","6:00 PM","7:00 PM","C"],["Sundays","6:00 PM","7:00 PM","OD"],["Fridays","6:00 PM","7:00 PM","Op"],["Wednesdays","6:00 PM","7:00 PM","C"],["Tuesdays","6:00 PM","7:00 PM","C"],["Thursdays","7:00 PM","8:00 PM","BB"],["Tuesdays","8:30 PM","9:30 PM","C"],["Mondays","8:30 PM","9:30 PM","OD"],["Saturdays","8:30 PM","9:30 PM","Op"],["Sundays","8:30 PM","9:30 PM","C"],["Thursdays","8:30 PM","9:30 PM","C"],["Fridays","8:30 PM","10:30 PM","S"],["Wednesdays","8:30 PM","9:30 PM","C"],["Tuesdays","10:15 PM","11:15 PM","B"],["Mondays","10:15 PM","11:15 PM","C"],["Thursdays","10:15 PM","11:15 PM","C"],["Wednesdays","10:15 PM","11:15 PM","C"],["Sundays","10:30 PM","11:30 PM","C"],["Saturdays","11:00 PM","12:00 AM","OD"],["Fridays","11:00 PM","12:00 AM","Op"]],"details":"No 8:30 or 10:15 1st Wed of month due to Bus. meeting Wed.10:15pm=No BB 1st Wed."},{"oldAddress":"232 West 11th St.","newAddress":"232 W 11TH ST New York NY ","lat":"40.736193","long":"-74.0028632","title":"Seventh Day Adventist Church","wheelc":false,"meetings":[["Thursdays","6:30 PM","7:45 PM","OD"],["Tuesdays","6:30 PM","7:45 PM","Op"]],"details":""},{"oldAddress":"224 Waverly Place","newAddress":"224 WAVERLY PL New York NY ","lat":"40.7360657","long":"-74.0019452","title":"St. John's Episcopal Church","wheelc":false,"meetings":[["Sundays","7:00 PM","8:00 PM","S"],["Thursdays","7:00 PM","8:00 PM","Sp"],["Fridays","7:00 PM","8:00 PM","B"],["Sundays","8:30 PM","9:30 PM","Sp"],["Fridays","8:30 PM","9:30 PM","OD"]],"details":"Fri.7:00pm=Promises Meeting All meetings are Gay & Lesbian focused. All are welcome."},{"oldAddress":"154 Sullivan St.","newAddress":"154 SULLIVAN ST New York NY ","lat":"40.7273786","long":"-74.0017414","title":"St. Anthony's of Padua","wheelc":false,"meetings":[["Mondays","7:30 AM","8:30 AM","BB"],["Tuesdays","7:30 AM","8:30 AM","B"],["Wednesdays","7:30 AM","8:30 AM","C"],["Thursdays","7:30 AM","8:30 AM","C"],["Fridays","7:30 AM","8:30 AM","Sp"]],"details":"Wed.=Topic, Thu.=Promises & Fri.=T Last Fri."},{"oldAddress":"273 Bowery St.","newAddress":"273 BOWERY ST New York NY ","lat":"40.7236736","long":"-73.9924832","title":"Chinatown YMCA","wheelc":true,"meetings":[["Sundays","7:30 AM","8:30 AM","Sp"],["Saturdays","7:30 AM","8:30 AM","Sp"]],"details":""},{"oldAddress":"371 6th Ave.","newAddress":"371 6TH AVE New York NY ","lat":"40.6701581","long":"-73.9819879","title":"St. Joseph's Church","wheelc":true,"meetings":[["Saturdays","6:00 PM","7:00 PM","B"]],"details":"Gay & Lesbian Focus. All are welcome."},{"oldAddress":"155 Sullivan St.","newAddress":"155 SULLIVAN ST New York NY ","lat":"40.7272525","long":"-74.0015782","title":"St. Anthony of Padua Church","wheelc":false,"meetings":[["Fridays","6:30 PM","7:30 PM","B"],["Mondays","7:00 PM","8:00 PM","Sp"],["Fridays","8:00 PM","9:00 PM","B"],["Mondays","8:30 PM","9:30 PM","C"]],"details":"Mon.7pm=Anniv Last Mon., Fri.6:30pm=Interpreted for Deaf and Hard of Hearing. Friday Meeting occasionally changes the location; please call New York Inter-Group to confirm meeting location."},{"oldAddress":"7 East 10th St.","newAddress":"7 E 10TH STRERT New York NY ","lat":"40.6482599","long":"-73.9704806","title":"The Bronfman Cernter @ NYU","wheelc":false,"meetings":[["Sundays","11:00 AM","12:15 PM","Sp"]],"details":"Lower level"},{"oldAddress":"232 West 11th St.","newAddress":"232 W 11TH ST New York NY ","lat":"40.736193","long":"-74.0028632","title":"Seventh Adventist Church","wheelc":false,"meetings":[["Mondays","6:30 PM","7:30 PM","Sp"]],"details":"Literature"},{"oldAddress":"81 Christopher St.","newAddress":"81 CHRISTOPHER ST New York NY ","lat":"40.6367254","long":"-74.1643744","title":"St. John's Lutheran Church","wheelc":false,"meetings":[["Tuesdays","8:00 PM","9:00 PM","C"]],"details":"The speaker will have 10+ years of sobriety. All welcome. Please ring Meeting Bell only"},{"oldAddress":"273 Bowery","newAddress":"273 BOWERY New York NY ","lat":"40.7236736","long":"-73.9924832","title":"University Settlement (The Chinatown YMCA)","wheelc":true,"meetings":[["Thursdays","7:00 PM","8:00 PM","BB"]],"details":"Men's Meeting"},{"oldAddress":"232 West 11th St.","newAddress":"232 W 11TH ST New York NY ","lat":"40.736193","long":"-74.0028632","title":"Manhattan Seventh-Day Adventist Church","wheelc":false,"meetings":[["Tuesdays","6:45 PM","8:00 PM","S"]],"details":""},{"oldAddress":"232 West 11th St.","newAddress":"232 W 11TH ST New York NY ","lat":"40.736193","long":"-74.0028632","title":"Manhattan Church of The Seventh-day Adventist","wheelc":true,"meetings":[["Wednesdays","6:15 PM","7:15 PM","C"]],"details":""},{"oldAddress":"83 Christopher St.","newAddress":"83 CHRISTOPHER ST New York NY ","lat":"40.7335702","long":"-74.0037456","title":"St. John's Lutheran Church","wheelc":true,"meetings":[["Thursdays","6:30 PM","7:45 PM","C"]],"details":"Focus women 5+ years of sobriety. All are welcome. Enter through Red Door left of church, Buzzer-Meeting Room"},{"oldAddress":"220 West Houston St.","newAddress":"220 W HOUSTON ST New York NY ","lat":"40.7286385","long":"-74.0045871","title":"","wheelc":false,"meetings":[["Saturdays","4:45 PM","5:45 PM","C"]],"details":"Women's Meeting"},{"oldAddress":"273 Bowery","newAddress":"273 BOWERY New York NY ","lat":"40.7236736","long":"-73.9924832","title":"University Settlement @ Houston Street Center","wheelc":true,"meetings":[["Fridays","6:15 PM","7:30 PM","C"]],"details":"*Women's Meeting Lesbian focus. All are welcome."}]